City,Country,Date,Latitude,Longitude,Cloudiness,Humidity,Max Temperature,Wind Speed
Edzell,GB,2020-06-16 01:00:23,56.81,-2.65,90,100,55.0,2.24
Arraial do Cabo,BR,2020-06-16 01:00:24,-22.97,-42.03,98,79,69.51,13.71
Iskateley,RU,2020-06-16 01:00:24,67.68,53.15,65,60,45.36,12.71
Mataura,NZ,2020-06-16 01:00:24,-46.19,168.86,100,82,51.28,4.65
Bilma,NE,2020-06-16 01:00:24,18.69,12.92,0,15,87.35,16.17
Prince Rupert,CA,2020-06-16 00:56:16,54.32,-130.32,75,76,55.4,3.36
Lompoc,US,2020-06-16 00:59:47,34.64,-120.46,100,87,57.2,11.41
Vaini,TO,2020-06-16 01:00:24,-21.2,-175.2,20,64,73.4,11.41
Makakilo City,US,2020-06-16 01:00:24,21.35,-158.09,75,78,80.6,18.77
Omboué,GA,2020-06-16 01:00:24,-1.57,9.26,73,92,72.45,7.0
Busselton,AU,2020-06-16 01:00:24,-33.65,115.33,91,52,66.0,14.74
Lakes Entrance,AU,2020-06-16 01:00:25,-37.88,147.98,99,52,66.99,1.99
Tasiilaq,GL,2020-06-16 01:00:25,65.61,-37.64,34,86,37.4,4.7
Tuktoyaktuk,CA,2020-06-16 01:00:25,69.45,-133.04,75,42,62.6,8.05
Nurota,UZ,2020-06-16 01:00:25,40.56,65.69,0,18,87.8,6.93
Ambilobe,MG,2020-06-16 01:00:25,-13.2,49.05,95,80,71.98,4.18
East London,ZA,2020-06-16 01:00:25,-33.02,27.91,40,93,51.8,6.93
Carauari,BR,2020-06-16 01:00:25,-4.88,-66.9,40,97,71.98,0.96
Hithadhoo,MV,2020-06-16 01:00:26,-0.6,73.08,28,76,84.69,14.07
Jamestown,US,2020-06-16 01:00:26,42.1,-79.24,1,58,57.2,6.93
Presidencia Roque Sáenz Peña,AR,2020-06-16 01:00:26,-26.79,-60.44,39,82,71.01,3.0
Jalu,LY,2020-06-16 01:00:26,29.03,21.55,0,75,71.31,18.5
Port Alfred,ZA,2020-06-16 01:00:26,-33.59,26.89,72,94,55.99,1.1
Huron,US,2020-06-16 01:00:26,41.15,-82.55,23,86,57.0,6.69
Castro,BR,2020-06-16 01:00:14,-24.79,-50.01,91,91,56.46,8.75
Dongsheng,CN,2020-06-16 01:00:26,39.82,109.98,87,21,79.27,8.48
Mehamn,NO,2020-06-16 01:00:26,71.04,27.85,75,80,41.0,19.46
Jinchang,CN,2020-06-16 01:00:26,38.5,102.17,100,24,75.02,7.78
Grand Gaube,MU,2020-06-16 01:00:27,-20.01,57.66,84,69,73.99,10.0
Hobart,AU,2020-06-16 01:00:16,-42.88,147.33,40,67,50.0,26.4
Atuona,PF,2020-06-16 00:58:33,-9.8,-139.03,88,73,80.49,14.58
Punta Arenas,CL,2020-06-16 01:00:00,-53.15,-70.92,24,93,35.6,6.93
Lebu,CL,2020-06-16 00:58:55,-37.62,-73.65,19,87,52.43,13.33
Três Lagoas,BR,2020-06-16 01:00:27,-20.75,-51.68,0,75,64.9,6.13
Bluff,NZ,2020-06-16 01:00:27,-46.6,168.33,88,79,55.44,12.41
Torbay,CA,2020-06-16 01:00:27,47.67,-52.73,90,100,50.0,5.82
Sibulan,PH,2020-06-16 01:00:27,9.36,123.28,75,79,86.0,6.93
Avarua,CK,2020-06-16 01:00:27,-21.21,-159.78,65,60,71.6,4.7
Ostrovnoy,RU,2020-06-16 01:00:27,68.05,39.51,97,70,44.33,16.46
Qaanaaq,GL,2020-06-16 00:58:48,77.48,-69.36,0,93,29.43,0.25
Cherskiy,RU,2020-06-16 01:00:27,68.75,161.3,5,24,78.78,1.88
Katsuura,JP,2020-06-16 01:00:28,35.13,140.3,20,58,87.01,17.22
Eureka,US,2020-06-16 01:00:28,40.8,-124.16,90,93,57.0,5.26
Batagay-Alyta,RU,2020-06-16 01:00:28,67.8,130.41,82,30,72.81,16.35
Saskylakh,RU,2020-06-16 01:00:28,71.92,114.08,59,56,55.53,21.77
Rome,US,2020-06-16 01:00:28,43.21,-75.46,1,81,53.6,3.36
Waddān,LY,2020-06-16 01:00:28,29.16,16.14,0,67,64.65,11.99
Lorengau,PG,2020-06-16 00:59:35,-2.02,147.27,100,74,84.51,10.51
Butaritari,KI,2020-06-16 01:00:28,3.07,172.79,7,74,84.43,9.31
Saint-Philippe,RE,2020-06-16 01:00:28,-21.36,55.77,50,60,72.0,11.41
Xichang,CN,2020-06-16 01:00:28,27.9,102.26,24,51,84.16,6.73
Reshetylivka,UA,2020-06-16 01:00:28,49.56,34.08,34,86,66.9,8.99
Cape Town,ZA,2020-06-16 01:00:28,-33.93,18.42,0,93,46.0,2.24
Emerald,AU,2020-06-16 01:00:10,-23.53,148.17,17,46,73.4,8.05
Nanortalik,GL,2020-06-16 01:00:29,60.14,-45.24,100,92,40.19,12.26
Luang Prabang,LA,2020-06-16 01:00:29,19.89,102.13,90,83,82.4,3.47
Saldanha,ZA,2020-06-16 01:00:29,-33.01,17.94,0,81,48.2,3.36
Sitka,US,2020-06-16 01:00:29,57.05,-135.33,75,71,55.4,12.75
Kapaa,US,2020-06-16 01:00:29,22.08,-159.32,20,69,80.6,16.11
Taoudenni,ML,2020-06-16 00:55:41,22.68,-3.98,0,13,94.05,13.78
Cidreira,BR,2020-06-16 00:59:16,-30.18,-50.21,5,88,61.03,12.84
Puerto Ayora,EC,2020-06-16 01:00:30,-0.74,-90.35,83,91,71.01,3.0
Bengkulu,ID,2020-06-16 01:00:30,-3.8,102.27,36,60,87.94,8.52
Rikitea,PF,2020-06-16 01:00:30,-23.12,-134.97,100,83,75.67,11.7
Lichinga,MZ,2020-06-16 01:00:30,-13.31,35.24,75,76,53.6,12.75
Kutum,SD,2020-06-16 01:00:30,14.2,24.67,51,43,77.85,2.15
Dikson,RU,2020-06-16 01:00:30,73.51,80.55,24,95,33.13,13.15
Yellowknife,CA,2020-06-16 00:58:09,62.46,-114.35,90,81,46.4,20.8
Grindsted,DK,2020-06-16 01:00:30,55.75,8.91,0,100,57.0,1.12
George Town,MY,2020-06-16 00:58:11,5.41,100.34,20,74,86.0,5.82
Carnarvon,AU,2020-06-16 01:00:06,-24.87,113.63,0,14,80.6,16.11
Clyde River,CA,2020-06-16 01:00:30,70.47,-68.59,90,100,30.2,12.75
Aswān,EG,2020-06-16 01:00:30,24.09,32.91,0,23,84.22,11.5
Araouane,ML,2020-06-16 00:59:27,18.9,-3.53,16,10,94.55,12.75
Nevers,FR,2020-06-16 01:00:31,46.99,3.16,90,93,57.0,4.7
Tiksi,RU,2020-06-16 01:00:31,71.69,128.87,97,67,56.84,21.9
Kahului,US,2020-06-16 01:00:31,20.89,-156.47,40,65,80.6,18.34
Hong Kong,HK,2020-06-16 01:00:02,22.29,114.16,0,74,86.0,5.01
Kidal,ML,2020-06-16 01:00:31,18.44,1.41,1,12,89.53,7.0
Closepet,IN,2020-06-16 01:00:31,12.72,77.3,40,74,84.0,11.41
Tuatapere,NZ,2020-06-16 01:00:31,-46.13,167.68,73,84,53.87,6.49
Geraldton,AU,2020-06-16 01:00:31,-28.77,114.6,0,23,73.4,18.34
Longyearbyen,SJ,2020-06-16 01:00:11,78.22,15.64,75,74,37.4,16.11
Ushuaia,AR,2020-06-16 01:00:31,-54.8,-68.3,40,86,37.4,5.82
La Asuncion,VE,2020-06-16 01:00:31,11.03,-63.86,14,70,89.6,11.41
Laramie,US,2020-06-16 00:59:51,41.31,-105.59,1,50,60.01,10.29
Oranjemund,NA,2020-06-16 01:00:32,-28.55,16.43,22,28,61.61,28.61
Kenai,US,2020-06-16 01:00:32,60.55,-151.26,1,66,60.8,18.34
Cabra,ES,2020-06-16 01:00:32,37.47,-4.44,100,64,62.01,1.79
Kuytun,RU,2020-06-16 01:00:32,54.34,101.5,94,69,59.31,1.92
Agadez,NE,2020-06-16 01:00:32,19.75,10.25,0,19,81.46,8.16
The Pas,CA,2020-06-16 01:00:24,53.83,-101.25,1,59,62.6,6.93
Dno,RU,2020-06-16 00:59:48,57.83,29.96,32,86,68.9,3.69
Dwārka,IN,2020-06-16 01:00:33,22.24,68.97,100,72,88.2,10.85
Nikolskoye,RU,2020-06-16 01:00:33,59.7,30.79,5,64,73.4,0.96
Gravdal,NO,2020-06-16 01:00:33,68.12,13.5,63,66,48.2,11.41
Mar del Plata,AR,2020-06-16 00:57:44,-38.0,-57.56,89,93,54.0,11.41
Aki,JP,2020-06-16 01:00:33,33.5,133.9,20,69,78.8,8.05
Deputatsky,RU,2020-06-16 00:59:19,69.3,139.9,93,33,72.03,12.77
Lethem,GY,2020-06-16 01:00:33,3.38,-59.8,78,91,74.62,3.67
Lovozero,RU,2020-06-16 01:00:33,68.0,35.01,52,61,45.5,14.41
Soyo,AO,2020-06-16 01:00:34,-6.13,12.37,8,91,70.63,4.05
Sambava,MG,2020-06-16 01:00:34,-14.27,50.17,100,87,72.52,13.15
Chernyshevskiy,RU,2020-06-16 01:00:34,63.01,112.47,23,35,66.09,6.96
Kyra,RU,2020-06-16 01:00:34,49.58,111.98,99,30,83.32,4.0
Severnyy,RU,2020-06-16 01:00:34,50.68,36.55,34,49,69.8,8.95
Mana,GF,2020-06-16 01:00:34,5.66,-53.78,94,89,76.59,3.74
Mahébourg,MU,2020-06-16 01:00:35,-20.41,57.7,40,73,71.6,14.99
Dunedin,NZ,2020-06-16 00:56:59,-45.87,170.5,26,66,59.0,3.0
Krasnogorsk,RU,2020-06-16 01:00:35,55.82,37.32,97,72,69.01,6.71
Port Elizabeth,ZA,2020-06-16 01:00:19,-33.92,25.57,40,100,48.2,3.36
Beringovskiy,RU,2020-06-16 01:00:35,63.05,179.32,25,83,44.64,5.77
Padang,ID,2020-06-16 01:00:35,-0.95,100.35,92,68,86.04,5.39
Poya,NC,2020-06-16 01:00:35,-21.35,165.15,7,61,76.05,5.39
Vardø,NO,2020-06-16 01:00:35,70.37,31.11,40,69,44.6,19.46
Killarney,IE,2020-06-16 01:00:35,52.05,-9.52,100,93,55.26,4.0
Arlit,NE,2020-06-16 01:00:35,18.74,7.39,0,11,92.5,8.61
Barreiras,BR,2020-06-16 00:58:24,-12.15,-44.99,6,74,67.8,5.26
Hermanus,ZA,2020-06-16 01:00:36,-34.42,19.23,17,80,53.46,9.1
Albany,US,2020-06-16 01:00:12,42.6,-73.97,0,66,57.0,2.48
Ryōtsu-minato,JP,2020-06-16 01:00:36,38.08,138.43,40,69,75.2,9.17
Flinders,AU,2020-06-16 01:00:36,-34.58,150.86,18,48,70.0,13.0
Esperance,AU,2020-06-16 01:00:36,-33.87,121.9,40,51,62.6,11.41
Kavaratti,IN,2020-06-16 01:00:36,10.57,72.64,90,79,84.2,11.41
Huarmey,PE,2020-06-16 01:00:37,-10.07,-78.15,38,86,62.11,6.42
Olafsvik,IS,2020-06-16 01:00:37,64.89,-23.71,21,75,45.93,17.11
Qaqortoq,GL,2020-06-16 01:00:37,60.72,-46.03,100,86,41.0,3.36
Palmer,US,2020-06-16 01:00:37,42.16,-72.33,1,93,54.0,1.21
Brufut,GM,2020-06-16 01:00:38,13.38,-16.75,5,94,78.8,9.17
Bambous Virieux,MU,2020-06-16 01:00:38,-20.34,57.76,40,73,73.99,14.99
Hanzhong,CN,2020-06-16 01:00:38,33.07,107.03,100,91,73.38,2.33
Aklavik,CA,2020-06-16 01:00:38,68.22,-135.01,75,31,73.4,6.93
Westport,US,2020-06-16 01:00:38,41.14,-73.36,1,72,62.6,2.91
Umm Kaddadah,SD,2020-06-16 01:00:38,13.6,26.69,17,39,86.79,5.91
Khatanga,RU,2020-06-16 01:00:38,71.97,102.5,77,42,57.51,11.32
Rosa Zarate,EC,2020-06-16 01:00:38,0.33,-79.47,100,95,73.2,1.79
Touros,BR,2020-06-16 01:00:38,-5.2,-35.46,75,94,75.2,10.29
Hamilton,US,2020-06-16 01:00:38,39.18,-84.53,1,87,66.2,3.36
Bredasdorp,ZA,2020-06-16 01:00:38,-34.53,20.04,0,100,42.8,3.53
Olot,ES,2020-06-16 01:00:40,42.18,2.49,100,99,60.01,2.01
Iqaluit,CA,2020-06-16 01:00:40,63.75,-68.51,90,74,35.6,6.93
Lüderitz,NA,2020-06-16 01:00:40,-26.65,15.16,0,12,69.8,20.8
Constitución,CL,2020-06-16 01:00:40,-35.33,-72.42,100,91,55.24,17.74
Saint Paul Harbor,US,2020-06-16 01:00:40,57.79,-152.41,90,62,55.4,6.93
Upernavik,GL,2020-06-16 01:00:40,72.79,-56.15,47,96,31.35,12.28
Ribeira Grande,PT,2020-06-16 01:00:40,38.52,-28.7,3,82,63.52,14.56
Chui,UY,2020-06-16 01:00:40,-33.7,-53.46,65,93,57.02,9.73
Churapcha,RU,2020-06-16 01:00:40,62.0,132.43,4,35,74.12,8.61
Äänekoski,FI,2020-06-16 01:00:41,62.69,25.82,58,63,66.2,8.05
Temanggung,ID,2020-06-16 01:00:41,-7.32,110.18,40,66,87.8,11.41
Gao,ML,2020-06-16 01:00:42,16.64,1.64,1,31,91.09,7.99
Warri,NG,2020-06-16 01:00:42,5.52,5.75,88,95,75.2,2.84
Vao,NC,2020-06-16 01:00:42,-22.67,167.48,17,76,73.85,18.3
Ancud,CL,2020-06-16 01:00:42,-41.87,-73.82,90,100,52.0,17.22
Antalaha,MG,2020-06-16 01:00:42,-14.9,50.28,99,87,72.16,9.71
Port Lincoln,AU,2020-06-16 01:00:42,-34.73,135.87,30,61,61.25,13.15
Chicama,PE,2020-06-16 01:00:42,-7.84,-79.15,60,83,64.04,4.94
Stornoway,GB,2020-06-16 01:00:42,58.21,-6.39,93,93,55.99,3.36
Puri,IN,2020-06-16 01:00:42,19.8,85.85,75,94,82.4,4.7
El Alto,PE,2020-06-16 01:00:42,-4.27,-81.21,42,80,65.48,13.27
Chokurdakh,RU,2020-06-16 01:00:43,70.63,147.92,94,29,79.7,4.88
Lebyazh'ye,RU,2020-06-16 01:00:43,55.27,66.49,3,49,67.26,6.11
Palauig,PH,2020-06-16 01:00:43,15.44,119.9,11,70,86.63,7.92
São Filipe,CV,2020-06-16 01:00:43,14.9,-24.5,7,80,76.24,1.83
Pevek,RU,2020-06-16 01:00:43,69.7,170.31,18,68,45.82,5.32
Río Gallegos,AR,2020-06-16 01:00:43,-51.62,-69.22,99,92,26.6,2.24
Mandalgovi,MN,2020-06-16 01:00:43,45.76,106.27,100,16,80.83,16.69
Laguna,US,2020-06-16 01:00:44,38.42,-121.42,1,52,68.0,11.41
Hilo,US,2020-06-16 00:56:37,19.73,-155.09,75,65,78.8,6.93
Feicheng,CN,2020-06-16 01:00:44,35.26,117.97,100,53,82.65,8.59
Thompson,CA,2020-06-16 01:00:44,55.74,-97.86,40,93,57.2,8.57
Kudahuvadhoo,MV,2020-06-16 01:00:44,2.67,72.89,10,78,83.7,13.51
Barrow,US,2020-06-16 01:00:44,71.29,-156.79,75,86,37.4,13.87
Wajima,JP,2020-06-16 01:00:44,37.4,136.9,75,88,69.8,10.29
Dudinka,RU,2020-06-16 01:00:44,69.41,86.18,90,93,42.8,20.13
Grindavik,IS,2020-06-16 01:00:44,63.84,-22.43,40,81,44.6,14.99
Kruisfontein,ZA,2020-06-16 01:00:44,-34.0,24.73,36,93,48.88,3.62
Cape Canaveral,US,2020-06-16 00:57:02,28.41,-80.6,1,78,77.0,5.82
Santa Rosa,PH,2020-06-16 01:00:44,14.31,121.11,40,63,93.99,4.7
Fairbanks,US,2020-06-16 01:00:45,64.84,-147.72,75,77,62.6,5.82
Voh,NC,2020-06-16 01:00:45,-20.97,164.7,5,61,76.89,5.91
Destin,US,2020-06-16 00:58:15,30.39,-86.5,75,51,82.4,8.05
Te Anau,NZ,2020-06-16 01:00:45,-45.42,167.72,100,87,52.7,5.39
Hualmay,PE,2020-06-16 01:00:45,-11.1,-77.61,54,85,61.99,7.31
Bayjī,IQ,2020-06-16 01:00:45,34.93,43.49,0,19,93.83,12.82
Airai,TL,2020-06-16 00:59:07,-8.93,125.41,83,77,71.02,5.03
Saint George,US,2020-06-16 00:56:49,37.1,-113.58,1,18,84.2,10.29
Urucará,BR,2020-06-16 01:00:45,-2.54,-57.76,2,79,74.79,1.74
Kaitangata,NZ,2020-06-16 01:00:46,-46.28,169.85,100,67,54.0,1.99
Cao Bang,VN,2020-06-16 01:00:46,22.67,106.25,100,70,85.06,5.5
San Cristobal,VE,2020-06-16 01:00:46,7.77,-72.22,99,82,66.78,2.98
Tilichiki,RU,2020-06-16 00:59:34,60.47,166.1,37,62,51.67,9.22
Ko Samui,TH,2020-06-16 00:56:59,9.54,99.94,20,70,87.8,9.17
Karoi,ZW,2020-06-16 01:00:46,-16.81,29.69,44,87,49.68,5.26
Shambu,ET,2020-06-16 01:00:46,9.57,37.1,32,96,56.01,0.69
Dargaville,NZ,2020-06-16 01:00:46,-35.93,173.88,100,79,57.49,6.53
Anadyr,RU,2020-06-16 01:00:46,64.75,177.48,53,50,57.2,11.18
Ilulissat,GL,2020-06-16 01:00:46,69.22,-51.1,68,64,37.4,5.82
Paamiut,GL,2020-06-16 01:00:46,61.99,-49.67,100,95,38.95,9.78
Belaya Gora,RU,2020-06-16 01:00:46,68.53,146.42,2,20,85.57,7.63
Talant,FR,2020-06-16 01:00:47,47.34,5.01,33,100,57.0,3.47
Klaksvík,FO,2020-06-16 01:00:47,62.23,-6.59,90,100,51.8,5.82
Jishou,CN,2020-06-16 01:00:47,28.32,109.72,32,57,90.46,12.15
Ware,GB,2020-06-16 01:00:47,51.81,-0.03,3,92,55.0,2.84
Ponta do Sol,PT,2020-06-16 01:00:47,32.67,-17.1,75,83,69.8,5.82
Bétaré Oya,CM,2020-06-16 01:00:47,5.6,14.08,97,96,66.49,1.79
Samaná,DO,2020-06-16 01:00:47,19.21,-69.34,76,88,78.12,7.36
Bairiki Village,KI,2020-06-16 01:00:47,1.33,172.98,20,66,87.8,5.82
Nokaneng,BW,2020-06-16 01:00:47,-19.67,22.27,0,61,48.25,4.81
Bethel,US,2020-06-16 01:00:47,41.37,-73.41,1,87,55.99,1.16
Ipixuna,BR,2020-06-16 01:00:47,-1.76,-48.8,40,94,78.8,4.7
Kayerkan,RU,2020-06-16 01:00:48,69.35,87.76,90,93,42.8,20.13
Ponta Delgada,PT,2020-06-16 01:00:14,37.73,-25.67,20,72,62.6,8.05
Nísia Floresta,BR,2020-06-16 01:00:48,-6.09,-35.21,75,94,75.2,10.29
Guerrero Negro,MX,2020-06-16 00:56:05,27.98,-114.06,0,88,63.16,13.82
Margate,GB,2020-06-16 01:00:48,51.38,1.39,0,95,60.01,1.99
Shingū,JP,2020-06-16 01:00:48,33.73,135.98,40,48,82.4,8.05
Assiut,EG,2020-06-16 01:00:48,27.18,31.18,0,49,71.6,13.87
Mazagão,BR,2020-06-16 01:00:48,-0.12,-51.29,20,100,78.8,1.12
Baykit,RU,2020-06-16 01:00:48,61.67,96.37,35,44,57.02,10.6
Road Town,VG,2020-06-16 00:56:43,18.42,-64.62,60,83,82.99,13.0
Kiryat Gat,IL,2020-06-16 00:57:03,31.61,34.76,0,81,72.0,2.26
San Alberto,CO,2020-06-16 01:00:08,7.76,-73.39,95,76,76.86,1.59
Nabire,ID,2020-06-16 01:00:48,-3.37,135.48,100,79,80.37,5.17
Wenling,CN,2020-06-16 01:00:49,28.37,121.36,81,45,82.0,7.92
Williamsport,US,2020-06-16 01:00:23,41.24,-77.0,1,77,59.0,2.33
Cockburn Town,TC,2020-06-16 01:00:49,21.46,-71.14,100,80,82.0,15.66
Berdigestyakh,RU,2020-06-16 01:00:49,62.1,126.7,32,41,72.79,6.38
Lakatoro,VU,2020-06-16 01:00:49,-16.1,167.42,75,88,78.8,5.82
Saint Anthony,US,2020-06-16 01:00:49,45.02,-93.22,1,49,73.99,12.75
Verkhnetulomskiy,RU,2020-06-16 01:00:49,68.61,31.8,75,57,48.2,11.18
Merauke,ID,2020-06-16 01:00:49,-8.47,140.33,76,78,81.5,19.57
Port Hawkesbury,CA,2020-06-16 01:00:49,45.62,-61.35,1,93,48.0,3.36
Innisfail,AU,2020-06-16 00:59:24,-17.53,146.03,52,79,74.82,10.09
Aboyne,GB,2020-06-16 01:00:50,57.08,-2.78,90,100,54.0,3.36
Seoul,KR,2020-06-16 00:56:41,37.57,126.98,40,48,84.2,4.7
Bonavista,CA,2020-06-16 01:00:50,48.65,-53.11,100,80,44.01,12.82
Plettenberg Bay,ZA,2020-06-16 01:00:50,-34.05,23.37,0,75,54.59,2.42
Tanabe,JP,2020-06-16 01:00:50,33.73,135.37,40,48,82.4,8.05
Dingle,PH,2020-06-16 01:00:50,11.0,122.67,100,55,89.2,10.27
Lodwar,KE,2020-06-16 01:00:50,3.12,35.6,73,55,79.25,15.82
Tema,GH,2020-06-16 01:00:50,5.67,-0.02,20,94,78.8,9.17
Skellefteå,SE,2020-06-16 01:00:50,64.75,20.95,15,58,61.0,10.29
Zhanakorgan,KZ,2020-06-16 01:00:51,43.91,67.25,0,28,73.22,19.62
Abinsk,RU,2020-06-16 01:00:51,44.87,38.16,89,83,77.0,1.01
Pasni,PK,2020-06-16 01:00:51,25.26,63.47,91,75,86.92,10.07
San Patricio,MX,2020-06-16 01:00:51,19.22,-104.7,7,72,78.6,5.48
Rocha,UY,2020-06-16 01:00:51,-34.48,-54.33,43,94,52.86,9.62
Husavik,IS,2020-06-16 01:00:51,66.04,-17.34,91,73,41.0,20.8
Yangambi,CD,2020-06-16 01:00:51,0.81,24.43,22,87,71.24,0.51
New Norfolk,AU,2020-06-16 01:00:51,-42.78,147.06,76,72,50.0,8.99
Inuvik,CA,2020-06-16 01:00:24,68.35,-133.72,75,31,73.4,6.93
Kingston,JM,2020-06-16 00:56:54,18.0,-76.79,100,95,75.99,2.13
Oistins,BB,2020-06-16 01:00:51,13.07,-59.53,75,74,80.6,18.34
Guiyang,CN,2020-06-16 01:00:51,26.58,106.72,75,61,82.4,22.37
Arawa,PG,2020-06-16 01:00:51,-6.21,155.54,41,74,83.93,4.05
Rawson,AR,2020-06-16 01:00:52,-43.3,-65.1,100,54,49.48,20.11
Hasaki,JP,2020-06-16 01:00:52,35.73,140.83,40,58,91.0,9.17
Tazovsky,RU,2020-06-16 01:00:52,67.47,78.7,100,90,41.7,13.09
Murray Bridge,AU,2020-06-16 01:00:52,-35.12,139.27,60,75,59.0,14.88
Ulladulla,AU,2020-06-16 01:00:52,-35.35,150.47,4,40,68.0,24.16
Peleduy,RU,2020-06-16 01:00:52,59.63,112.74,90,34,78.31,6.53
Villa del Rosario,CO,2020-06-16 01:00:52,7.83,-72.47,100,67,74.88,2.62
Zabaykal'sk,RU,2020-06-16 01:00:52,49.63,117.32,17,23,84.13,5.55
Poum,NC,2020-06-16 01:00:52,-20.23,164.02,0,72,75.38,11.3
Provideniya,RU,2020-06-16 01:00:53,64.38,-173.3,59,62,55.4,6.71
Misratah,LY,2020-06-16 01:00:53,32.38,15.09,0,76,70.39,15.52
Paka,MY,2020-06-16 01:00:53,4.64,103.44,40,75,89.6,4.7
Adrar,MR,2020-06-16 01:00:53,20.5,-10.07,0,16,94.5,18.01
Maumere,ID,2020-06-16 01:00:53,-8.62,122.21,34,67,84.43,6.35
Tarko-Sale,RU,2020-06-16 01:00:53,64.92,77.78,100,75,57.0,8.01
Mezen',RU,2020-06-16 01:00:54,65.85,44.24,100,91,42.21,7.2
Koumac,NC,2020-06-16 01:00:54,-20.57,164.28,30,68,75.65,6.46
Charter Township of Clinton,US,2020-06-16 00:58:34,42.59,-82.92,1,72,63.0,6.76
Kalianget,ID,2020-06-16 01:00:54,-7.05,113.93,81,71,84.83,11.23
Souillac,MU,2020-06-16 01:00:54,-20.52,57.52,40,73,71.6,14.99
Almaty,KZ,2020-06-16 01:00:54,43.25,76.95,75,27,87.8,2.24
Obanazawa,JP,2020-06-16 01:00:54,38.6,140.4,75,53,77.0,5.82
Sobolevo,RU,2020-06-16 01:00:54,54.43,31.9,83,94,68.41,8.55
Laas,IT,2020-06-16 01:00:54,46.62,10.7,75,93,55.0,6.93
San Jerónimo,PE,2020-06-16 01:00:55,-11.95,-75.28,84,74,46.65,0.18
Lac du Bonnet,CA,2020-06-16 01:00:55,50.25,-96.06,37,59,66.99,3.83
Gizo Government Station,SB,2020-06-16 01:00:55,-8.1,156.84,65,75,82.89,11.5
Codrington,AU,2020-06-16 01:00:55,-38.27,141.97,71,71,58.87,17.96
Coahuayana Viejo,MX,2020-06-16 01:00:55,18.73,-103.68,10,79,77.99,1.25
Lagoa,PT,2020-06-16 01:00:55,39.05,-27.98,0,81,63.66,12.93
Matara,LK,2020-06-16 01:00:55,5.95,80.54,94,82,83.12,12.35
Norman Wells,CA,2020-06-16 00:56:33,65.28,-126.83,75,42,62.6,2.24
Lomovka,RU,2020-06-16 01:00:55,53.92,58.37,40,40,69.8,11.18
La Ronge,CA,2020-06-16 00:58:56,55.1,-105.28,75,87,55.4,8.05
Koregaon,IN,2020-06-16 01:00:55,18.65,74.08,97,75,81.0,9.89
Akureyri,IS,2020-06-16 01:00:56,65.68,-18.09,6,62,41.0,20.8
Ust'-Ordynskiy,RU,2020-06-16 01:00:56,52.8,104.75,90,93,59.0,17.9
Vostok,RU,2020-06-16 01:00:56,46.49,135.88,99,88,54.37,1.95
Kapurthala Town,IN,2020-06-16 00:57:12,31.38,75.38,0,41,93.2,6.93
Yulara,AU,2020-06-16 01:00:56,-25.24,130.99,0,25,66.2,12.75
Cabo San Lucas,MX,2020-06-16 00:56:49,22.89,-109.91,0,41,84.99,1.01
Abonnema,NG,2020-06-16 01:00:56,4.71,6.79,40,94,77.0,3.31
Hope,US,2020-06-16 01:00:56,33.67,-93.59,44,67,75.99,3.94
Goderich,CA,2020-06-16 01:00:56,43.75,-81.72,0,72,55.0,10.6
Rabo de Peixe,PT,2020-06-16 01:00:56,37.8,-25.58,20,72,62.6,8.05
Zhigansk,RU,2020-06-16 01:00:56,66.77,123.37,96,68,62.19,18.61
Olean,US,2020-06-16 01:00:57,42.08,-78.43,1,62,52.0,5.82
Kailua,US,2020-06-16 01:00:57,21.4,-157.74,90,48,87.8,13.87
Malbork,PL,2020-06-16 01:00:57,54.04,19.03,61,100,55.0,5.95
Karratha,AU,2020-06-16 01:00:57,-20.74,116.85,0,28,82.89,14.94
Naze,JP,2020-06-16 01:00:57,28.37,129.48,75,83,82.4,9.17
San Quintín,MX,2020-06-16 01:00:57,30.48,-115.95,1,85,62.87,6.8
Shagonar,RU,2020-06-16 01:00:57,51.53,92.8,59,55,64.98,2.89
Cascais,PT,2020-06-16 01:00:57,38.7,-9.42,0,91,64.99,2.19
Stellenbosch,ZA,2020-06-16 01:00:57,-33.93,18.87,0,93,46.0,2.24
Bal‘ā,PS,2020-06-16 01:00:58,32.33,35.11,40,73,75.2,2.24
Nemuro,JP,2020-06-16 01:00:58,43.32,145.57,75,93,57.2,5.82
Ust-Tsilma,RU,2020-06-16 01:00:58,65.44,52.15,100,69,48.83,3.15
Zaraza,VE,2020-06-16 01:00:58,9.35,-65.32,100,95,74.08,2.46
Troitsko-Pechorsk,RU,2020-06-16 01:00:58,62.71,56.2,89,57,69.67,9.01
Campbell River,CA,2020-06-16 01:00:58,50.02,-125.24,75,93,53.6,5.82
Palanga,LT,2020-06-16 01:00:58,55.92,21.07,84,93,57.2,5.82
Luocheng,CN,2020-06-16 01:00:58,29.38,104.03,69,40,100.38,1.99
Nuristan,AF,2020-06-16 01:00:59,35.3,70.83,0,37,52.09,2.17
Hambantota,LK,2020-06-16 01:00:59,6.12,81.12,75,75,89.6,14.99
Kirkwall,GB,2020-06-16 01:00:59,58.98,-2.96,32,93,52.0,8.05
Great Yarmouth,GB,2020-06-16 01:00:59,52.61,1.73,100,99,57.99,1.01
Pidhaytsi,UA,2020-06-16 01:00:59,49.27,25.13,2,90,68.0,5.99
Iguape,BR,2020-06-16 01:00:28,-24.71,-47.56,97,90,67.57,8.39
Charters Towers,AU,2020-06-16 01:00:59,-20.1,146.27,84,68,74.39,8.95
Maragogi,BR,2020-06-16 01:00:59,-9.01,-35.22,55,85,76.24,14.45
Narsaq,GL,2020-06-16 01:01:00,60.92,-46.05,100,86,41.0,3.36
Atar,MR,2020-06-16 01:01:00,20.52,-13.05,22,19,93.34,15.12
Tyup,KG,2020-06-16 01:01:00,42.73,78.36,94,35,70.3,7.78
Fare,PF,2020-06-16 01:01:00,-16.7,-151.02,36,83,79.79,12.62
São Francisco,BR,2020-06-16 01:01:00,-15.95,-44.86,10,87,63.84,3.76
Lagunas,PE,2020-06-16 01:01:00,-5.23,-75.68,96,98,72.37,1.3
Yar-Sale,RU,2020-06-16 01:01:00,66.83,70.83,100,59,48.33,15.5
Hirara,JP,2020-06-16 01:01:00,24.8,125.28,40,74,87.8,19.46
Manado,ID,2020-06-16 01:01:00,1.49,124.85,40,74,86.0,5.82
Duku,NG,2020-06-16 01:01:01,11.24,4.91,89,71,78.49,9.15
Marystown,CA,2020-06-16 01:01:01,47.17,-55.15,100,95,49.15,6.42
Angoche,MZ,2020-06-16 01:01:01,-16.23,39.91,75,85,71.15,10.16
Bathsheba,BB,2020-06-16 01:01:01,13.22,-59.52,75,74,80.6,18.34
Sioux Lookout,CA,2020-06-16 01:01:01,50.1,-91.92,40,68,66.2,14.99
Ngunguru,NZ,2020-06-16 01:01:01,-35.62,174.5,100,96,57.0,1.01
Comodoro Rivadavia,AR,2020-06-16 01:00:14,-45.87,-67.5,40,93,41.0,2.44
Tazmalt,DZ,2020-06-16 01:01:01,36.39,4.4,17,82,59.0,6.93
Buraidah,SA,2020-06-16 01:00:29,26.33,43.98,0,24,89.6,16.11
Ulaanbaatar,MN,2020-06-16 01:01:02,47.91,106.88,75,14,84.2,15.66
Tsumeb,NA,2020-06-16 01:01:02,-19.23,17.72,0,48,50.81,8.68
Saint-Augustin,CA,2020-06-16 01:01:03,51.23,-58.65,87,52,52.7,9.44
Yangi Marg`ilon,UZ,2020-06-16 01:01:03,40.43,71.72,0,27,86.0,4.7
Lavrentiya,RU,2020-06-16 01:01:03,65.58,-171.0,10,56,51.75,3.09
Chaman,PK,2020-06-16 01:01:03,30.92,66.45,0,8,95.77,17.72
Esim,GH,2020-06-16 01:01:03,4.87,-2.24,97,83,78.3,4.27
Richards Bay,ZA,2020-06-16 01:01:03,-28.78,32.04,1,74,54.86,8.19
Abhar,IR,2020-06-16 01:01:03,36.15,49.22,0,21,78.58,1.97
Alofi,NU,2020-06-16 01:01:03,-19.06,-169.92,10,69,73.4,18.34
Bundaberg,AU,2020-06-16 01:01:03,-24.85,152.35,90,64,77.0,9.17
Tandaltī,SD,2020-06-16 01:01:04,13.02,31.87,100,68,78.8,22.79
De Aar,ZA,2020-06-16 01:01:04,-30.65,24.01,0,72,37.06,10.69
Hofn,IS,2020-06-16 01:01:04,64.25,-15.21,39,80,47.37,10.54
Mokhsogollokh,RU,2020-06-16 01:01:04,61.47,128.92,73,49,70.36,6.06
Pokhara,NP,2020-06-16 01:01:04,28.23,83.98,53,56,85.08,5.08
Kirtipur,NP,2020-06-16 01:01:04,27.67,85.28,75,94,73.4,8.05
Alvorada,BR,2020-06-16 01:01:04,-12.48,-49.12,0,62,69.82,6.04
Valparaíso,CL,2020-06-16 01:01:04,-33.04,-71.63,90,71,57.2,9.17
Saint-Louis,SN,2020-06-16 01:01:05,16.33,-15.0,45,48,84.2,4.7
Immokalee,US,2020-06-16 01:01:05,26.42,-81.42,0,97,73.99,3.0
Kieta,PG,2020-06-16 01:01:05,-6.22,155.63,49,73,83.79,5.03
Pinsk,BY,2020-06-16 01:01:05,52.12,26.1,14,90,62.92,7.34
Brigantine,US,2020-06-16 01:01:05,39.41,-74.36,1,77,62.01,4.7
Teknāf,BD,2020-06-16 01:01:05,20.86,92.31,99,79,85.98,13.76
Pisco,PE,2020-06-16 00:59:08,-13.7,-76.22,90,82,64.4,6.93
Ojinaga,MX,2020-06-16 01:01:05,29.57,-104.42,1,28,84.2,17.22
Yumen,CN,2020-06-16 01:01:05,40.28,97.2,98,16,82.44,10.0
Santa Clara,CU,2020-06-16 01:01:05,22.4,-79.97,75,94,73.4,4.7
Knysna,ZA,2020-06-16 01:01:06,-34.04,23.05,0,81,50.0,6.93
Broken Hill,AU,2020-06-16 01:01:06,-31.95,141.43,1,39,64.4,13.87
Muncar,ID,2020-06-16 01:01:06,-8.43,114.33,14,71,84.88,8.59
Nouadhibou,MR,2020-06-16 01:01:06,20.93,-17.03,29,45,84.2,21.92
Cayenne,GF,2020-06-16 01:01:06,4.93,-52.33,90,100,77.0,3.47
Yerbogachën,RU,2020-06-16 01:01:06,61.28,108.01,66,37,64.76,7.14
Thinadhoo,MV,2020-06-16 01:01:06,0.53,72.93,52,77,84.25,11.59
Gamba,GA,2020-06-16 01:01:06,-2.65,10.0,55,93,71.26,3.47
Huilong,CN,2020-06-16 01:01:06,31.81,121.66,100,84,77.0,1.99
Zafra,ES,2020-06-16 01:01:07,38.42,-6.42,39,81,57.0,5.99
Port Shepstone,ZA,2020-06-16 01:01:07,-30.74,30.45,0,50,55.09,9.26
Vágur,FO,2020-06-16 01:01:07,61.47,-6.81,66,93,50.77,5.17
Klyuchi,RU,2020-06-16 01:01:07,52.27,79.17,67,41,65.34,13.27
Mattru,SL,2020-06-16 01:01:07,7.62,-11.83,38,99,73.89,2.71
Homnābād,IN,2020-06-16 01:01:07,17.77,77.13,100,78,80.04,18.72
Wanning,CN,2020-06-16 01:01:07,18.8,110.4,97,83,80.82,18.07
Mitú,CO,2020-06-16 00:59:49,1.2,-70.17,77,98,70.95,1.1
Pangody,RU,2020-06-16 01:01:07,65.85,74.49,100,88,51.8,15.37
Corn Island,NI,2020-06-16 01:01:08,12.17,-83.04,99,80,82.74,14.03
Kalmunai,LK,2020-06-16 01:01:08,7.42,81.82,100,55,89.85,2.75
Inhambane,MZ,2020-06-16 01:01:08,-23.86,35.38,75,88,62.6,11.18
Baruun-Urt,MN,2020-06-16 01:01:08,46.68,113.28,47,14,88.47,13.62
College,US,2020-06-16 01:01:08,64.86,-147.8,75,77,62.6,1.41
Tuy Hoa,VN,2020-06-16 01:01:08,13.08,109.3,100,59,89.15,2.42
Kayes,ML,2020-06-16 01:01:08,14.0,-11.0,80,57,82.44,5.93
Caravelas,BR,2020-06-16 01:01:08,-17.71,-39.25,100,76,75.4,10.71
Vestmannaeyjar,IS,2020-06-16 01:01:08,63.44,-20.27,94,70,47.48,8.12
Ndendé,GA,2020-06-16 01:01:08,-2.4,11.36,81,94,70.92,1.14
Emba,KZ,2020-06-16 01:01:09,48.83,58.14,0,35,71.96,11.41
Santa Marta,CO,2020-06-16 00:57:44,11.24,-74.2,100,80,80.31,5.26
Vila Franca do Campo,PT,2020-06-16 00:59:19,37.72,-25.43,20,72,62.6,8.05
Durango,MX,2020-06-16 00:58:40,24.83,-104.83,0,33,68.05,5.03
Machico,PT,2020-06-16 01:01:09,32.7,-16.77,75,83,69.8,5.82
Leningradskiy,RU,2020-06-16 01:01:09,69.38,178.42,0,67,51.06,7.43
Vanimo,PG,2020-06-16 01:01:09,-2.67,141.3,68,64,85.5,5.55
Portland,US,2020-06-16 00:59:27,45.52,-122.68,85,74,57.99,6.08
Port Hardy,CA,2020-06-16 01:00:59,50.7,-127.42,75,93,51.8,4.7
Biritiba-Mirim,BR,2020-06-16 01:01:10,-23.57,-46.04,40,82,69.01,6.93
Batī,ET,2020-06-16 01:01:10,11.18,40.02,40,29,79.54,6.17
Ma’anshan,CN,2020-06-16 01:01:10,31.7,118.5,90,100,72.0,8.95
Santa Maria,BR,2020-06-16 01:00:10,-29.68,-53.81,12,94,57.54,4.85
Tancanhuitz,MX,2020-06-16 01:01:10,21.6,-98.97,10,83,71.11,2.24
Alice Springs,AU,2020-06-16 01:00:10,-23.7,133.88,79,20,64.4,16.11
Vezirköprü,TR,2020-06-16 01:01:10,41.14,35.45,40,93,60.8,2.42
Manta,EC,2020-06-16 01:00:07,-0.95,-80.73,66,83,71.82,11.79
Iwanai,JP,2020-06-16 01:01:10,42.97,140.51,99,89,60.67,3.58
Baker City,US,2020-06-16 01:01:10,44.77,-117.83,90,81,53.6,12.75
Bergen,NO,2020-06-16 01:01:10,60.39,5.33,37,87,60.01,10.29
Price,US,2020-06-16 01:01:10,39.6,-110.81,1,17,75.2,4.7
Magadan,RU,2020-06-16 01:01:11,59.57,150.8,0,48,59.04,10.36
Khovd,MN,2020-06-16 01:01:11,48.01,91.64,3,25,75.33,9.78
Pemangkat,ID,2020-06-16 01:01:11,1.17,108.97,98,81,81.81,9.57
Ol'ga,RU,2020-06-16 01:01:11,43.74,135.29,92,67,62.01,3.36
Nicoya,CR,2020-06-16 01:01:11,10.15,-85.45,100,91,76.73,1.66
Oddur,SO,2020-06-16 01:01:11,4.12,43.89,87,69,74.64,22.44
Zhezkazgan,KZ,2020-06-16 01:01:11,47.8,67.71,75,48,60.8,22.37
Caucayá,CO,2020-06-16 01:01:11,-0.19,-74.78,37,97,70.39,0.96
Warrnambool,AU,2020-06-16 01:01:11,-38.38,142.48,90,89,55.0,21.36
Half Moon Bay,US,2020-06-16 00:57:28,37.46,-122.43,20,87,61.0,11.41
Ivdel',RU,2020-06-16 01:01:12,60.69,60.42,61,44,73.38,10.07
Hersbruck,DE,2020-06-16 01:01:12,49.51,11.43,75,93,59.0,6.93
Maiduguri,NG,2020-06-16 01:01:12,11.85,13.16,26,56,84.87,12.84
Saint-Léonard,CA,2020-06-16 01:01:12,47.17,-67.92,1,47,57.2,2.93
Kovdor,RU,2020-06-16 01:01:12,67.57,30.48,14,55,46.71,8.63
Boa Vista,BR,2020-06-16 01:00:14,2.82,-60.67,58,88,75.2,1.12
Takoradze,GH,2020-06-16 01:01:12,4.88,-1.76,99,83,78.31,4.0
Griffith,US,2020-06-16 01:00:15,41.53,-87.42,1,76,57.99,4.0
Zhoucheng,CN,2020-06-16 00:57:56,35.91,116.31,100,51,79.38,11.74
Logansport,US,2020-06-16 01:01:13,40.75,-86.36,1,63,66.2,5.82
Mayo,US,2020-06-16 01:01:13,38.89,-76.51,20,68,66.99,6.93
Coquimbo,CL,2020-06-16 01:01:13,-29.95,-71.34,90,82,55.4,2.24
Talnakh,RU,2020-06-16 00:59:30,69.49,88.4,90,93,42.8,20.13
Mīnāb,IR,2020-06-16 01:01:13,27.15,57.08,39,71,93.2,2.24
Skibbereen,IE,2020-06-16 01:01:13,51.55,-9.27,75,93,55.4,8.05
Whyalla,AU,2020-06-16 00:57:37,-33.03,137.58,39,55,66.2,9.17
Necochea,AR,2020-06-16 01:01:13,-38.55,-58.74,100,92,50.0,8.99
Jiaojiang,CN,2020-06-16 01:01:13,28.68,121.44,89,65,102.0,3.0
Nuuk,GL,2020-06-16 01:01:13,64.18,-51.72,100,93,35.6,13.87
Babol,IR,2020-06-16 01:01:13,36.55,52.68,0,61,80.6,4.7
Kapit,MY,2020-06-16 01:01:14,2.02,112.93,54,52,93.22,2.82
Salalah,OM,2020-06-16 01:01:14,17.02,54.09,75,74,87.8,2.24
Ucluelet,CA,2020-06-16 00:59:26,48.93,-125.55,100,84,54.0,3.15
Pemberton,CA,2020-06-16 00:57:51,50.32,-122.8,99,67,51.84,2.82
Lithgow,AU,2020-06-16 01:01:14,-33.48,150.15,0,47,71.01,10.18
Bereda,ES,2020-06-16 01:01:14,43.27,-7.54,95,100,55.0,3.0
Mchinji,MW,2020-06-16 01:01:14,-13.8,32.88,0,86,50.79,4.99
‘Ewa Beach,US,2020-06-16 01:01:14,21.32,-158.01,75,57,80.6,12.75
Coyhaique,CL,2020-06-16 01:01:14,-45.58,-72.07,100,83,33.8,3.36
Kuching,MY,2020-06-16 00:56:17,1.55,110.33,40,83,82.4,2.24
Honiara,SB,2020-06-16 01:01:14,-9.43,159.95,75,55,91.4,18.34
Altoona,US,2020-06-16 01:01:14,40.52,-78.39,92,87,55.99,1.81
Dossor,KZ,2020-06-16 01:01:15,47.53,52.98,0,20,78.6,14.07
Karla,EE,2020-06-16 01:01:15,59.37,24.93,20,82,68.0,3.36
Juradó,CO,2020-06-16 01:01:15,7.11,-77.76,70,85,77.99,0.02
La Cruz,MX,2020-06-16 01:01:15,23.92,-106.9,0,87,73.99,3.22
Morondava,MG,2020-06-16 01:01:15,-20.28,44.28,0,68,67.98,7.4
São Desidério,BR,2020-06-16 01:01:15,-12.36,-44.97,12,76,66.9,7.09
Boffa,GN,2020-06-16 01:01:15,10.17,-14.03,86,88,77.04,2.8
Wexford,IE,2020-06-16 01:01:15,52.33,-6.46,88,89,52.0,1.92
Auki,SB,2020-06-16 01:01:15,-8.77,160.7,98,79,82.53,6.44
Distrikt Brokopondo,SR,2020-06-16 01:01:15,4.75,-55.17,88,85,77.18,4.18
Alugan,PH,2020-06-16 01:01:16,12.22,125.48,43,71,84.65,7.58
Santa Lucía,ES,2020-06-16 01:01:16,27.91,-15.54,13,88,71.6,10.29
Sabang,ID,2020-06-16 01:01:16,5.89,95.32,100,77,82.26,16.04
Saravan,AM,2020-06-16 01:01:16,39.72,45.65,0,68,64.4,4.7
Atbasar,KZ,2020-06-16 01:01:16,51.8,68.33,50,49,64.45,11.92
Muli,MV,2020-06-16 01:01:16,2.92,73.57,4,78,84.45,11.97
Chifeng,CN,2020-06-16 01:01:16,42.27,118.96,86,16,90.16,4.21
Avera,US,2020-06-16 01:01:16,33.19,-82.53,75,82,64.4,8.05
Okha,RU,2020-06-16 01:01:16,53.57,142.95,97,84,41.31,9.15
Metković,HR,2020-06-16 01:01:16,43.05,17.65,75,100,62.6,1.12
Deep River,CA,2020-06-16 01:01:16,46.1,-77.5,1,76,52.0,1.68
Hokitika,NZ,2020-06-16 01:01:16,-42.72,170.97,55,90,57.65,1.16
Khanbari,NP,2020-06-16 00:58:25,27.37,87.2,100,69,76.53,2.8
Udachny,RU,2020-06-16 01:01:16,66.42,112.4,90,58,53.6,8.95
Bilibino,RU,2020-06-16 01:01:16,68.05,166.44,43,30,73.24,1.54
Severo-Kuril'sk,RU,2020-06-16 01:01:17,50.68,156.12,97,84,42.94,13.44
Bulungu,CD,2020-06-16 01:01:17,-4.55,18.6,1,61,65.52,3.47
Kemijärvi,FI,2020-06-16 01:01:17,66.71,27.43,11,62,49.64,7.25
Ekhabi,RU,2020-06-16 01:01:17,53.51,142.97,96,83,42.3,9.19
Jeremoabo,BR,2020-06-16 01:01:17,-10.07,-38.48,92,92,69.4,6.64
Kattivākkam,IN,2020-06-16 01:01:17,13.22,80.32,40,44,96.8,9.17
Faanui,PF,2020-06-16 00:58:54,-16.48,-151.75,35,86,78.87,15.9
Evensk,RU,2020-06-16 01:01:17,61.95,159.23,94,46,61.34,8.01
Olivehurst,US,2020-06-16 01:00:15,39.1,-121.55,1,31,73.4,7.78
Saurimo,AO,2020-06-16 01:01:18,-9.66,20.39,1,60,51.85,5.59
Vicuña,CL,2020-06-16 01:01:18,-30.03,-70.71,42,71,50.0,0.96
Fortuna,US,2020-06-16 01:01:18,40.6,-124.16,75,93,57.0,5.82
Kirensk,RU,2020-06-16 01:01:18,57.79,108.11,100,92,55.22,4.9
Mahina,PF,2020-06-16 01:01:18,-17.51,-149.49,40,78,80.6,5.82
Hecun,CN,2020-06-16 01:01:19,36.53,114.11,100,59,72.1,7.7
Ahipara,NZ,2020-06-16 01:01:19,-35.17,173.17,100,81,58.93,8.77
New Ulm,US,2020-06-16 01:00:35,44.31,-94.46,1,57,78.8,14.99
La Rioja,ES,2020-06-16 01:01:19,42.25,-2.5,90,82,59.0,8.05
Peniche,PT,2020-06-16 01:01:19,39.36,-9.38,10,92,61.0,4.0
Rantauprapat,ID,2020-06-16 01:01:19,2.1,99.83,100,64,88.0,4.25
Amboasary,MG,2020-06-16 01:01:19,-25.03,46.38,20,93,62.6,2.24
Santa Isabel do Pará,BR,2020-06-16 01:01:19,-1.3,-48.16,40,94,78.8,4.7
São Joaquim,BR,2020-06-16 01:01:19,-28.29,-49.93,53,100,48.87,4.36
Séguéla,CI,2020-06-16 01:01:19,7.96,-6.67,12,97,70.84,5.41
Vila,PT,2020-06-16 01:01:20,42.03,-8.16,99,93,54.0,3.0
Pelym,RU,2020-06-16 01:01:20,61.01,62.0,63,39,75.09,11.48
Maniitsoq,GL,2020-06-16 01:01:20,65.42,-52.9,98,85,37.06,4.88
Pudozh,RU,2020-06-16 01:01:20,61.81,36.53,0,53,68.25,4.29
Banda Aceh,ID,2020-06-16 01:01:20,5.56,95.32,100,77,81.46,11.05
Carman,CA,2020-06-16 00:59:50,49.5,-98.0,20,48,64.4,3.36
Ayr,GB,2020-06-16 01:01:20,55.46,-4.63,40,93,59.0,4.65
Henties Bay,NA,2020-06-16 01:01:20,-22.12,14.28,0,27,69.15,14.63
Ariquemes,BR,2020-06-16 00:59:22,-9.91,-63.04,90,87,71.2,1.97
Labuhan,ID,2020-06-16 01:01:21,-6.88,112.21,90,68,86.43,8.99
Brae,GB,2020-06-16 01:01:21,60.4,-1.35,0,87,55.4,4.7
Izvor,MK,2020-06-16 01:01:21,42.2,21.58,75,87,59.0,2.24
Ukhta,RU,2020-06-16 01:01:21,63.57,53.68,98,80,63.09,6.02
Pizarro,CO,2020-06-16 01:01:21,4.95,-77.37,88,87,78.39,3.42
Tartous,SY,2020-06-16 01:01:21,34.89,35.89,0,64,73.0,5.82
Alekseyevsk,RU,2020-06-16 01:01:21,57.84,108.35,100,92,56.14,5.73
Safi,MA,2020-06-16 01:01:21,32.3,-9.24,71,75,66.69,11.72
Bridgewater,CA,2020-06-16 01:00:15,44.38,-64.52,61,95,48.0,2.1
Chapais,CA,2020-06-16 01:01:21,49.78,-74.85,1,58,55.4,5.82
Tarazá,CO,2020-06-16 01:01:21,7.58,-75.4,92,88,76.08,1.25
Lowestoft,GB,2020-06-16 01:01:21,52.48,1.75,100,99,57.99,1.01
Mocuba,MZ,2020-06-16 01:01:21,-16.84,36.99,28,95,59.9,4.79
Cranbourne,AU,2020-06-16 01:00:45,-38.1,145.28,97,66,62.01,13.15
Puksoozero,RU,2020-06-16 01:01:22,62.59,40.61,3,55,67.17,7.45
Tiarei,PF,2020-06-16 01:01:22,-17.53,-149.33,40,78,80.6,5.82
Manicoré,BR,2020-06-16 01:01:22,-5.81,-61.3,36,100,73.4,1.12
Nome,US,2020-06-16 01:01:22,64.5,-165.41,1,51,64.0,4.7
Beloha,MG,2020-06-16 01:01:22,-25.17,45.05,4,80,64.92,11.36
Ygatimi,PY,2020-06-16 01:01:23,-24.08,-55.5,0,77,69.4,7.58
Mananjary,MG,2020-06-16 01:01:23,-21.22,48.33,17,82,65.66,6.38
Lewistown,US,2020-06-16 01:01:23,40.6,-77.57,1,93,57.2,2.86
Harper,LR,2020-06-16 01:01:23,4.38,-7.72,76,83,77.45,5.93
Krasnyy Chikoy,RU,2020-06-16 01:01:23,50.36,108.75,98,35,83.53,2.04
Mossamedes,AO,2020-06-16 01:01:23,-15.2,12.15,0,52,69.93,3.76
Bañga,PH,2020-06-16 01:01:23,6.42,124.78,20,55,91.4,6.93
Marsh Harbour,BS,2020-06-16 01:01:23,26.54,-77.06,92,78,79.77,10.54
Manokwari,ID,2020-06-16 01:01:24,-0.87,134.08,21,67,85.26,5.61
Haines Junction,CA,2020-06-16 01:01:24,60.75,-137.51,100,60,60.37,4.68
Guaíba,BR,2020-06-16 01:00:25,-30.11,-51.33,20,100,57.0,1.12
Havre-St-Pierre,CA,2020-06-16 01:01:24,50.23,-63.6,75,87,46.4,5.82
